{"type":"FeatureCollection","features":[{"type":"Feature","id":"goth_jihlava_lokality.1","geometry":{"type":"Point","coordinates":[15.58710158,49.39473243]},"geometry_name":"the_geom","properties":{"fid":1,"nazev":"Brána Matky Boží"}},{"type":"Feature","id":"goth_jihlava_lokality.2","geometry":{"type":"Point","coordinates":[15.57333384,49.40214337]},"geometry_name":"the_geom","properties":{"fid":2,"nazev":"Stadion v Jiráskově ulici"}},{"type":"Feature","id":"goth_jihlava_lokality.3","geometry":{"type":"Point","coordinates":[15.59093211,49.39554355]},"geometry_name":"the_geom","properties":{"fid":3,"nazev":"Prior"}},{"type":"Feature","id":"goth_jihlava_lokality.4","geometry":{"type":"Point","coordinates":[15.59111049,49.39605316]},"geometry_name":"the_geom","properties":{"fid":4,"nazev":"Magistrát"}},{"type":"Feature","id":"goth_jihlava_lokality.5","geometry":{"type":"Point","coordinates":[15.58128079,49.3996789]},"geometry_name":"the_geom","properties":{"fid":5,"nazev":"Autobusové nádraží"}},{"type":"Feature","id":"goth_jihlava_lokality.6","geometry":{"type":"Point","coordinates":[15.59280527,49.41068284]},"geometry_name":"the_geom","properties":{"fid":6,"nazev":"Železniční most Havlíčkova"}},{"type":"Feature","id":"goth_jihlava_lokality.7","geometry":{"type":"Point","coordinates":[15.58869467,49.40658974]},"geometry_name":"the_geom","properties":{"fid":7,"nazev":"Železniční viadukt"}},{"type":"Feature","id":"goth_jihlava_lokality.8","geometry":{"type":"Point","coordinates":[15.60139162,49.40195939]},"geometry_name":"the_geom","properties":{"fid":8,"nazev":"Obchodní centrum Březinky"}},{"type":"Feature","id":"goth_jihlava_lokality.9","geometry":{"type":"Point","coordinates":[15.58453592,49.39454453]},"geometry_name":"the_geom","properties":{"fid":9,"nazev":"Dělnický dům"}},{"type":"Feature","id":"goth_jihlava_lokality.10","geometry":{"type":"Point","coordinates":[15.5936022,49.39274479]},"geometry_name":"the_geom","properties":{"fid":10,"nazev":"City Park"}},{"type":"Feature","id":"goth_jihlava_lokality.11","geometry":{"type":"Point","coordinates":[15.58796553,49.40244591]},"geometry_name":"the_geom","properties":{"fid":11,"nazev":"Tabačka"}},{"type":"Feature","id":"goth_jihlava_lokality.12","geometry":{"type":"Point","coordinates":[15.61161227,49.39849049]},"geometry_name":"the_geom","properties":{"fid":12,"nazev":"Na Člunku"}}],"totalFeatures":12,"numberMatched":12,"numberReturned":12,"timeStamp":"2020-12-05T21:17:33.980Z","crs":{"type":"name","properties":{"name":"urn:ogc:def:crs:EPSG::4326"}}}